{
"type": "FeatureCollection",
"name": "gminy_etykiety",
"crs": { "type": "name", "properties": { "name": "urn:ogc:def:crs:EPSG::4258" } },
"features": [
{ "type": "Feature", "properties": { "JPT_KOD_JE": "2416102", "JPT_NAZWA_": "Żarnowiec", "KOD_WOJ": 24, "KOD_POW": 2416, "WOJ": "śląskie", "POW": "zawierciański", "TMCE": "TAK", "ILOSC": 54 }, "geometry": { "type": "Point", "coordinates": [ 19.870865454315584, 50.496805945500057 ] } },
{ "type": "Feature", "properties": { "JPT_KOD_JE": "2403062", "JPT_NAZWA_": "Dębowiec", "KOD_WOJ": 24, "KOD_POW": 2403, "WOJ": "śląskie", "POW": "cieszyński", "TMCE": "TAK", "ILOSC": 19 }, "geometry": { "type": "Point", "coordinates": [ 18.72170369911947, 49.797644828000045 ] } },
{ "type": "Feature", "properties": { "JPT_KOD_JE": "2417112", "JPT_NAZWA_": "Rajcza", "KOD_WOJ": 24, "KOD_POW": 2417, "WOJ": "śląskie", "POW": "żywiecki", "TMCE": "TAK", "ILOSC": 45 }, "geometry": { "type": "Point", "coordinates": [ 19.028566499819533, 49.46585143300004 ] } },
{ "type": "Feature", "properties": { "JPT_KOD_JE": "2403092", "JPT_NAZWA_": "Istebna", "KOD_WOJ": 24, "KOD_POW": 2403, "WOJ": "śląskie", "POW": "cieszyński", "TMCE": "TAK", "ILOSC": 54 }, "geometry": { "type": "Point", "coordinates": [ 18.912709644508389, 49.560950400500076 ] } },
{ "type": "Feature", "properties": { "JPT_KOD_JE": "1205092", "JPT_NAZWA_": "Sękowa", "KOD_WOJ": 12, "KOD_POW": 1205, "WOJ": "małopolskie", "POW": "gorlicki", "TMCE": "TAK", "ILOSC": 228 }, "geometry": { "type": "Point", "coordinates": [ 21.331078600272676, 49.537073395500045 ] } },
{ "type": "Feature", "properties": { "JPT_KOD_JE": "2402052", "JPT_NAZWA_": "Jasienica", "KOD_WOJ": 24, "KOD_POW": 2402, "WOJ": "śląskie", "POW": "bielski", "TMCE": "TAK", "ILOSC": 114 }, "geometry": { "type": "Point", "coordinates": [ 18.906489483067194, 49.831254382500049 ] } },
{ "type": "Feature", "properties": { "JPT_KOD_JE": "1215021", "JPT_NAZWA_": "Sucha Beskidzka", "KOD_WOJ": 12, "KOD_POW": 1215, "WOJ": "małopolskie", "POW": "suski", "TMCE": "TAK", "ILOSC": 322 }, "geometry": { "type": "Point", "coordinates": [ 19.58237079826597, 49.732589862500049 ] } },
{ "type": "Feature", "properties": { "JPT_KOD_JE": "1201032", "JPT_NAZWA_": "Drwinia", "KOD_WOJ": 12, "KOD_POW": 1201, "WOJ": "małopolskie", "POW": "bocheński", "TMCE": "TAK", "ILOSC": 263 }, "geometry": { "type": "Point", "coordinates": [ 20.43298311187155, 50.072007855000066 ] } },
{ "type": "Feature", "properties": { "JPT_KOD_JE": "1206022", "JPT_NAZWA_": "Igołomia-Wawrzeńczyce", "KOD_WOJ": 12, "KOD_POW": 1206, "WOJ": "małopolskie", "POW": "krakowski", "TMCE": "TAK", "ILOSC": 130 }, "geometry": { "type": "Point", "coordinates": [ 20.268691094870981, 50.106870127000064 ] } },
{ "type": "Feature", "properties": { "JPT_KOD_JE": "2414021", "JPT_NAZWA_": "Imielin", "KOD_WOJ": 24, "KOD_POW": 2414, "WOJ": "śląskie", "POW": "bieruńsko-lędziński", "TMCE": "TAK", "ILOSC": 147 }, "geometry": { "type": "Point", "coordinates": [ 19.202610446943012, 50.143864584000056 ] } },
{ "type": "Feature", "properties": { "JPT_KOD_JE": "2403042", "JPT_NAZWA_": "Brenna", "KOD_WOJ": 24, "KOD_POW": 2403, "WOJ": "śląskie", "POW": "cieszyński", "TMCE": "TAK", "ILOSC": 89 }, "geometry": { "type": "Point", "coordinates": [ 18.924127452259256, 49.725309766000038 ] } },
{ "type": "Feature", "properties": { "JPT_KOD_JE": "1213033", "JPT_NAZWA_": "Chełmek", "KOD_WOJ": 12, "KOD_POW": 1213, "WOJ": "małopolskie", "POW": "oświęcimski", "TMCE": "TAK", "ILOSC": 227 }, "geometry": { "type": "Point", "coordinates": [ 19.252312763319722, 50.090327759000076 ] } },
{ "type": "Feature", "properties": { "JPT_KOD_JE": "1215072", "JPT_NAZWA_": "Stryszawa", "KOD_WOJ": 12, "KOD_POW": 1215, "WOJ": "małopolskie", "POW": "suski", "TMCE": "TAK", "ILOSC": 49 }, "geometry": { "type": "Point", "coordinates": [ 19.49052552348525, 49.728288882500067 ] } },
{ "type": "Feature", "properties": { "JPT_KOD_JE": "1218033", "JPT_NAZWA_": "Kalwaria Zebrzydowska", "KOD_WOJ": 12, "KOD_POW": 1218, "WOJ": "małopolskie", "POW": "wadowicki", "TMCE": "TAK", "ILOSC": 682 }, "geometry": { "type": "Point", "coordinates": [ 19.68223316884086, 49.888831092000032 ] } },
{ "type": "Feature", "properties": { "JPT_KOD_JE": "1218052", "JPT_NAZWA_": "Mucharz", "KOD_WOJ": 12, "KOD_POW": 1218, "WOJ": "małopolskie", "POW": "wadowicki", "TMCE": "TAK", "ILOSC": 216 }, "geometry": { "type": "Point", "coordinates": [ 19.529797373909055, 49.817393094000067 ] } },
{ "type": "Feature", "properties": { "JPT_KOD_JE": "1218042", "JPT_NAZWA_": "Lanckorona", "KOD_WOJ": 12, "KOD_POW": 1218, "WOJ": "małopolskie", "POW": "wadowicki", "TMCE": "TAK", "ILOSC": 247 }, "geometry": { "type": "Point", "coordinates": [ 19.742801970422789, 49.853081587000048 ] } },
{ "type": "Feature", "properties": { "JPT_KOD_JE": "2403072", "JPT_NAZWA_": "Goleszów", "KOD_WOJ": 24, "KOD_POW": 2403, "WOJ": "śląskie", "POW": "cieszyński", "TMCE": "TAK", "ILOSC": 152 }, "geometry": { "type": "Point", "coordinates": [ 18.724836433865427, 49.729004313500042 ] } },
{ "type": "Feature", "properties": { "JPT_KOD_JE": "1210133", "JPT_NAZWA_": "Piwniczna-Zdrój", "KOD_WOJ": 12, "KOD_POW": 1210, "WOJ": "małopolskie", "POW": "nowosądecki", "TMCE": "TAK", "ILOSC": 759 }, "geometry": { "type": "Point", "coordinates": [ 20.72673056464852, 49.432253626000062 ] } },
{ "type": "Feature", "properties": { "JPT_KOD_JE": "1209092", "JPT_NAZWA_": "Wiśniowa", "KOD_WOJ": 12, "KOD_POW": 1209, "WOJ": "małopolskie", "POW": "myślenicki", "TMCE": "TAK", "ILOSC": 36 }, "geometry": { "type": "Point", "coordinates": [ 20.097107863240073, 49.779741564000034 ] } },
{ "type": "Feature", "properties": { "JPT_KOD_JE": "1210011", "JPT_NAZWA_": "Grybów", "KOD_WOJ": 12, "KOD_POW": 1210, "WOJ": "małopolskie", "POW": "nowosądecki", "TMCE": "TAK", "ILOSC": 172 }, "geometry": { "type": "Point", "coordinates": [ 20.948829089586567, 49.614946823500048 ] } },
{ "type": "Feature", "properties": { "JPT_KOD_JE": "1210082", "JPT_NAZWA_": "Łabowa", "KOD_WOJ": 12, "KOD_POW": 1210, "WOJ": "małopolskie", "POW": "nowosądecki", "TMCE": "TAK", "ILOSC": 145 }, "geometry": { "type": "Point", "coordinates": [ 20.849339952724797, 49.492673901000046 ] } },
{ "type": "Feature", "properties": { "JPT_KOD_JE": "1210042", "JPT_NAZWA_": "Grybów", "KOD_WOJ": 12, "KOD_POW": 1210, "WOJ": "małopolskie", "POW": "nowosądecki", "TMCE": "TAK", "ILOSC": 911 }, "geometry": { "type": "Point", "coordinates": [ 20.874893627056522, 49.605596872000064 ] } },
{ "type": "Feature", "properties": { "JPT_KOD_JE": "1210163", "JPT_NAZWA_": "Stary Sącz", "KOD_WOJ": 12, "KOD_POW": 1210, "WOJ": "małopolskie", "POW": "nowosądecki", "TMCE": "TAK", "ILOSC": 468 }, "geometry": { "type": "Point", "coordinates": [ 20.616551281775457, 49.527406015500048 ] } },
{ "type": "Feature", "properties": { "JPT_KOD_JE": "1212011", "JPT_NAZWA_": "Bukowno", "KOD_WOJ": 12, "KOD_POW": 1212, "WOJ": "małopolskie", "POW": "olkuski", "TMCE": "TAK", "ILOSC": 84 }, "geometry": { "type": "Point", "coordinates": [ 19.436179948061053, 50.260990980500054 ] } },
{ "type": "Feature", "properties": { "JPT_KOD_JE": "1213082", "JPT_NAZWA_": "Przeciszów", "KOD_WOJ": 12, "KOD_POW": 1213, "WOJ": "małopolskie", "POW": "oświęcimski", "TMCE": "TAK", "ILOSC": 47 }, "geometry": { "type": "Point", "coordinates": [ 19.374965684995065, 49.99562244750004 ] } },
{ "type": "Feature", "properties": { "JPT_KOD_JE": "1214012", "JPT_NAZWA_": "Koniusza", "KOD_WOJ": 12, "KOD_POW": 1214, "WOJ": "małopolskie", "POW": "proszowicki", "TMCE": "TAK", "ILOSC": 303 }, "geometry": { "type": "Point", "coordinates": [ 20.205179662325921, 50.178069944500038 ] } },
{ "type": "Feature", "properties": { "JPT_KOD_JE": "1214033", "JPT_NAZWA_": "Nowe Brzesko", "KOD_WOJ": 12, "KOD_POW": 1214, "WOJ": "małopolskie", "POW": "proszowicki", "TMCE": "TAK", "ILOSC": 40 }, "geometry": { "type": "Point", "coordinates": [ 20.403377972257736, 50.148834854500052 ] } },
{ "type": "Feature", "properties": { "JPT_KOD_JE": "1206082", "JPT_NAZWA_": "Michałowice", "KOD_WOJ": 12, "KOD_POW": 1206, "WOJ": "małopolskie", "POW": "krakowski", "TMCE": "TAK", "ILOSC": 144 }, "geometry": { "type": "Point", "coordinates": [ 20.005793051292596, 50.152540938000072 ] } },
{ "type": "Feature", "properties": { "JPT_KOD_JE": "2417102", "JPT_NAZWA_": "Radziechowy-Wieprz", "KOD_WOJ": 24, "KOD_POW": 2417, "WOJ": "śląskie", "POW": "żywiecki", "TMCE": "TAK", "ILOSC": 182 }, "geometry": { "type": "Point", "coordinates": [ 19.205217415389995, 49.624065881500059 ] } },
{ "type": "Feature", "properties": { "JPT_KOD_JE": "2417122", "JPT_NAZWA_": "Ślemień", "KOD_WOJ": 24, "KOD_POW": 2417, "WOJ": "śląskie", "POW": "żywiecki", "TMCE": "TAK", "ILOSC": 13 }, "geometry": { "type": "Point", "coordinates": [ 19.393125772284129, 49.734735583500054 ] } },
{ "type": "Feature", "properties": { "JPT_KOD_JE": "1209013", "JPT_NAZWA_": "Dobczyce", "KOD_WOJ": 12, "KOD_POW": 1209, "WOJ": "małopolskie", "POW": "myślenicki", "TMCE": "TAK", "ILOSC": 818 }, "geometry": { "type": "Point", "coordinates": [ 20.100374379615083, 49.875066876500028 ] } },
{ "type": "Feature", "properties": { "JPT_KOD_JE": "2403103", "JPT_NAZWA_": "Skoczów", "KOD_WOJ": 24, "KOD_POW": 2403, "WOJ": "śląskie", "POW": "cieszyński", "TMCE": "TAK", "ILOSC": 412 }, "geometry": { "type": "Point", "coordinates": [ 18.809607685078195, 49.808161239500066 ] } },
{ "type": "Feature", "properties": { "JPT_KOD_JE": "1219012", "JPT_NAZWA_": "Biskupice", "KOD_WOJ": 12, "KOD_POW": 1219, "WOJ": "małopolskie", "POW": "wielicki", "TMCE": "TAK", "ILOSC": 363 }, "geometry": { "type": "Point", "coordinates": [ 20.149539231587198, 49.960467087000069 ] } },
{ "type": "Feature", "properties": { "JPT_KOD_JE": "2403082", "JPT_NAZWA_": "Hażlach", "KOD_WOJ": 24, "KOD_POW": 2403, "WOJ": "śląskie", "POW": "cieszyński", "TMCE": "TAK", "ILOSC": 100 }, "geometry": { "type": "Point", "coordinates": [ 18.636141807896923, 49.810492637000038 ] } },
{ "type": "Feature", "properties": { "JPT_KOD_JE": "2403031", "JPT_NAZWA_": "Wisła", "KOD_WOJ": 24, "KOD_POW": 2403, "WOJ": "śląskie", "POW": "cieszyński", "TMCE": "TAK", "ILOSC": 299 }, "geometry": { "type": "Point", "coordinates": [ 18.910185109545495, 49.635723482000031 ] } },
{ "type": "Feature", "properties": { "JPT_KOD_JE": "1209052", "JPT_NAZWA_": "Raciechowice", "KOD_WOJ": 12, "KOD_POW": 1209, "WOJ": "małopolskie", "POW": "myślenicki", "TMCE": "TAK", "ILOSC": 149 }, "geometry": { "type": "Point", "coordinates": [ 20.177427841976268, 49.839712023000033 ] } },
{ "type": "Feature", "properties": { "JPT_KOD_JE": "1210052", "JPT_NAZWA_": "Kamionka Wielka", "KOD_WOJ": 12, "KOD_POW": 1210, "WOJ": "małopolskie", "POW": "nowosądecki", "TMCE": "TAK", "ILOSC": 218 }, "geometry": { "type": "Point", "coordinates": [ 20.824266112223366, 49.58098010650005 ] } },
{ "type": "Feature", "properties": { "JPT_KOD_JE": "1210102", "JPT_NAZWA_": "Łososina Dolna", "KOD_WOJ": 12, "KOD_POW": 1210, "WOJ": "małopolskie", "POW": "nowosądecki", "TMCE": "TAK", "ILOSC": 52 }, "geometry": { "type": "Point", "coordinates": [ 20.644171827071503, 49.737913501000065 ] } },
{ "type": "Feature", "properties": { "JPT_KOD_JE": "1205033", "JPT_NAZWA_": "Bobowa", "KOD_WOJ": 12, "KOD_POW": 1205, "WOJ": "małopolskie", "POW": "gorlicki", "TMCE": "TAK", "ILOSC": 42 }, "geometry": { "type": "Point", "coordinates": [ 20.946024556835795, 49.707137533000036 ] } },
{ "type": "Feature", "properties": { "JPT_KOD_JE": "1206032", "JPT_NAZWA_": "Iwanowice", "KOD_WOJ": 12, "KOD_POW": 1206, "WOJ": "małopolskie", "POW": "krakowski", "TMCE": "TAK", "ILOSC": 311 }, "geometry": { "type": "Point", "coordinates": [ 19.973303069809393, 50.228356671000057 ] } },
{ "type": "Feature", "properties": { "JPT_KOD_JE": "2402102", "JPT_NAZWA_": "Wilkowice", "KOD_WOJ": 24, "KOD_POW": 2402, "WOJ": "śląskie", "POW": "bielski", "TMCE": "TAK", "ILOSC": 59 }, "geometry": { "type": "Point", "coordinates": [ 19.106537480720789, 49.765884584000077 ] } },
{ "type": "Feature", "properties": { "JPT_KOD_JE": "1213023", "JPT_NAZWA_": "Brzeszcze", "KOD_WOJ": 12, "KOD_POW": 1213, "WOJ": "małopolskie", "POW": "oświęcimski", "TMCE": "TAK", "ILOSC": 512 }, "geometry": { "type": "Point", "coordinates": [ 19.160362174854164, 49.97778280700004 ] } },
{ "type": "Feature", "properties": { "JPT_KOD_JE": "2417032", "JPT_NAZWA_": "Gilowice", "KOD_WOJ": 24, "KOD_POW": 2417, "WOJ": "śląskie", "POW": "żywiecki", "TMCE": "TAK", "ILOSC": 68 }, "geometry": { "type": "Point", "coordinates": [ 19.308812367877017, 49.712607016500044 ] } },
{ "type": "Feature", "properties": { "JPT_KOD_JE": "2401062", "JPT_NAZWA_": "Psary", "KOD_WOJ": 24, "KOD_POW": 2401, "WOJ": "śląskie", "POW": "będziński", "TMCE": "TAK", "ILOSC": 161 }, "geometry": { "type": "Point", "coordinates": [ 19.122277336573759, 50.386609379000049 ] } },
{ "type": "Feature", "properties": { "JPT_KOD_JE": "2401081", "JPT_NAZWA_": "Sławków", "KOD_WOJ": 24, "KOD_POW": 2401, "WOJ": "śląskie", "POW": "będziński", "TMCE": "TAK", "ILOSC": 445 }, "geometry": { "type": "Point", "coordinates": [ 19.341430532340208, 50.291885104000045 ] } },
{ "type": "Feature", "properties": { "JPT_KOD_JE": "1213072", "JPT_NAZWA_": "Polanka Wielka", "KOD_WOJ": 12, "KOD_POW": 1213, "WOJ": "małopolskie", "POW": "oświęcimski", "TMCE": "TAK", "ILOSC": 67 }, "geometry": { "type": "Point", "coordinates": [ 19.3034860224761, 49.981271269500041 ] } },
{ "type": "Feature", "properties": { "JPT_KOD_JE": "1215063", "JPT_NAZWA_": "Maków Podhalański", "KOD_WOJ": 12, "KOD_POW": 1215, "WOJ": "małopolskie", "POW": "suski", "TMCE": "TAK", "ILOSC": 119 }, "geometry": { "type": "Point", "coordinates": [ 19.666485102974367, 49.701251979500057 ] } },
{ "type": "Feature", "properties": { "JPT_KOD_JE": "1215092", "JPT_NAZWA_": "Zembrzyce", "KOD_WOJ": 12, "KOD_POW": 1215, "WOJ": "małopolskie", "POW": "suski", "TMCE": "TAK", "ILOSC": 70 }, "geometry": { "type": "Point", "coordinates": [ 19.573550921817716, 49.777941961500062 ] } },
{ "type": "Feature", "properties": { "JPT_KOD_JE": "2403021", "JPT_NAZWA_": "Ustroń", "KOD_WOJ": 24, "KOD_POW": 2403, "WOJ": "śląskie", "POW": "cieszyński", "TMCE": "TAK", "ILOSC": 1402 }, "geometry": { "type": "Point", "coordinates": [ 18.825180180157744, 49.718557204000064 ] } },
{ "type": "Feature", "properties": { "JPT_KOD_JE": "1205102", "JPT_NAZWA_": "Uście Gorlickie", "KOD_WOJ": 12, "KOD_POW": 1205, "WOJ": "małopolskie", "POW": "gorlicki", "TMCE": "TAK", "ILOSC": 376 }, "geometry": { "type": "Point", "coordinates": [ 21.176235319654722, 49.490067095000057 ] } },
{ "type": "Feature", "properties": { "JPT_KOD_JE": "2401031", "JPT_NAZWA_": "Wojkowice", "KOD_WOJ": 24, "KOD_POW": 2401, "WOJ": "śląskie", "POW": "będziński", "TMCE": "TAK", "ILOSC": 268 }, "geometry": { "type": "Point", "coordinates": [ 19.035849836234867, 50.36594965650005 ] } },
{ "type": "Feature", "properties": { "JPT_KOD_JE": "1210032", "JPT_NAZWA_": "Gródek nad Dunajcem", "KOD_WOJ": 12, "KOD_POW": 1210, "WOJ": "małopolskie", "POW": "nowosądecki", "TMCE": "TAK", "ILOSC": 65 }, "geometry": { "type": "Point", "coordinates": [ 20.769101193791307, 49.750497628000062 ] } },
{ "type": "Feature", "properties": { "JPT_KOD_JE": "1212042", "JPT_NAZWA_": "Klucze", "KOD_WOJ": 12, "KOD_POW": 1212, "WOJ": "małopolskie", "POW": "olkuski", "TMCE": "TAK", "ILOSC": 224 }, "geometry": { "type": "Point", "coordinates": [ 19.56266748605406, 50.365449079000058 ] } },
{ "type": "Feature", "properties": { "JPT_KOD_JE": "1213093", "JPT_NAZWA_": "Zator", "KOD_WOJ": 12, "KOD_POW": 1213, "WOJ": "małopolskie", "POW": "oświęcimski", "TMCE": "TAK", "ILOSC": 561 }, "geometry": { "type": "Point", "coordinates": [ 19.434903837144255, 49.988436044500048 ] } },
{ "type": "Feature", "properties": { "JPT_KOD_JE": "1215032", "JPT_NAZWA_": "Budzów", "KOD_WOJ": 12, "KOD_POW": 1215, "WOJ": "małopolskie", "POW": "suski", "TMCE": "TAK", "ILOSC": 74 }, "geometry": { "type": "Point", "coordinates": [ 19.722975717992593, 49.785124375000038 ] } },
{ "type": "Feature", "properties": { "JPT_KOD_JE": "1205072", "JPT_NAZWA_": "Moszczenica", "KOD_WOJ": 12, "KOD_POW": 1205, "WOJ": "małopolskie", "POW": "gorlicki", "TMCE": "TAK", "ILOSC": 127 }, "geometry": { "type": "Point", "coordinates": [ 21.099250124944689, 49.732737554000067 ] } },
{ "type": "Feature", "properties": { "JPT_KOD_JE": "2402011", "JPT_NAZWA_": "Szczyrk", "KOD_WOJ": 24, "KOD_POW": 2402, "WOJ": "śląskie", "POW": "bielski", "TMCE": "TAK", "ILOSC": 564 }, "geometry": { "type": "Point", "coordinates": [ 19.01094793594093, 49.696491149500076 ] } },
{ "type": "Feature", "properties": { "JPT_KOD_JE": "2417022", "JPT_NAZWA_": "Czernichów", "KOD_WOJ": 24, "KOD_POW": 2417, "WOJ": "śląskie", "POW": "żywiecki", "TMCE": "TAK", "ILOSC": 88 }, "geometry": { "type": "Point", "coordinates": [ 19.19532822363805, 49.777457608000049 ] } },
{ "type": "Feature", "properties": { "JPT_KOD_JE": "2417092", "JPT_NAZWA_": "Milówka", "KOD_WOJ": 24, "KOD_POW": 2417, "WOJ": "śląskie", "POW": "żywiecki", "TMCE": "TAK", "ILOSC": 163 }, "geometry": { "type": "Point", "coordinates": [ 19.046734713072226, 49.567515325000073 ] } },
{ "type": "Feature", "properties": { "JPT_KOD_JE": "2417132", "JPT_NAZWA_": "Świnna", "KOD_WOJ": 24, "KOD_POW": 2417, "WOJ": "śląskie", "POW": "żywiecki", "TMCE": "TAK", "ILOSC": 57 }, "geometry": { "type": "Point", "coordinates": [ 19.262997573837325, 49.661147983000063 ] } },
{ "type": "Feature", "properties": { "JPT_KOD_JE": "2417072", "JPT_NAZWA_": "Łękawica", "KOD_WOJ": 24, "KOD_POW": 2417, "WOJ": "śląskie", "POW": "żywiecki", "TMCE": "TAK", "ILOSC": 154 }, "geometry": { "type": "Point", "coordinates": [ 19.30009611772676, 49.744850722000052 ] } },
{ "type": "Feature", "properties": { "JPT_KOD_JE": "2403113", "JPT_NAZWA_": "Strumień", "KOD_WOJ": 24, "KOD_POW": 2403, "WOJ": "śląskie", "POW": "cieszyński", "TMCE": "TAK", "ILOSC": 160 }, "geometry": { "type": "Point", "coordinates": [ 18.727725102387041, 49.889455949500046 ] } },
{ "type": "Feature", "properties": { "JPT_KOD_JE": "1210152", "JPT_NAZWA_": "Rytro", "KOD_WOJ": 12, "KOD_POW": 1210, "WOJ": "małopolskie", "POW": "nowosądecki", "TMCE": "TAK", "ILOSC": 130 }, "geometry": { "type": "Point", "coordinates": [ 20.618560124284699, 49.475643622000064 ] } },
{ "type": "Feature", "properties": { "JPT_KOD_JE": "1205011", "JPT_NAZWA_": "Gorlice", "KOD_WOJ": 12, "KOD_POW": 1205, "WOJ": "małopolskie", "POW": "gorlicki", "TMCE": "TAK", "ILOSC": 135 }, "geometry": { "type": "Point", "coordinates": [ 21.163389531404853, 49.666871913000051 ] } },
{ "type": "Feature", "properties": { "JPT_KOD_JE": "1205052", "JPT_NAZWA_": "Lipinki", "KOD_WOJ": 12, "KOD_POW": 1205, "WOJ": "małopolskie", "POW": "gorlicki", "TMCE": "TAK", "ILOSC": 2 }, "geometry": { "type": "Point", "coordinates": [ 21.288198641740784, 49.65894665950006 ] } },
{ "type": "Feature", "properties": { "JPT_KOD_JE": "1205082", "JPT_NAZWA_": "Ropa", "KOD_WOJ": 12, "KOD_POW": 1205, "WOJ": "małopolskie", "POW": "gorlicki", "TMCE": "TAK", "ILOSC": 170 }, "geometry": { "type": "Point", "coordinates": [ 21.070413159517472, 49.574154035500044 ] } },
{ "type": "Feature", "properties": { "JPT_KOD_JE": "2414052", "JPT_NAZWA_": "Chełm Śląski", "KOD_WOJ": 24, "KOD_POW": 2414, "WOJ": "śląskie", "POW": "bieruńsko-lędziński", "TMCE": "TAK", "ILOSC": 566 }, "geometry": { "type": "Point", "coordinates": [ 19.201559104493747, 50.104729280000043 ] } },
{ "type": "Feature", "properties": { "JPT_KOD_JE": "2417062", "JPT_NAZWA_": "Lipowa", "KOD_WOJ": 24, "KOD_POW": 2417, "WOJ": "śląskie", "POW": "żywiecki", "TMCE": "TAK", "ILOSC": 16 }, "geometry": { "type": "Point", "coordinates": [ 19.08195045267173, 49.667630148000057 ] } },
{ "type": "Feature", "properties": { "JPT_KOD_JE": "2417011", "JPT_NAZWA_": "Żywiec", "KOD_WOJ": 24, "KOD_POW": 2417, "WOJ": "śląskie", "POW": "żywiecki", "TMCE": "TAK", "ILOSC": 1627 }, "geometry": { "type": "Point", "coordinates": [ 19.219149036868757, 49.706496130000062 ] } },
{ "type": "Feature", "properties": { "JPT_KOD_JE": "1219022", "JPT_NAZWA_": "Gdów", "KOD_WOJ": 12, "KOD_POW": 1219, "WOJ": "małopolskie", "POW": "wielicki", "TMCE": "TAK", "ILOSC": 375 }, "geometry": { "type": "Point", "coordinates": [ 20.233331936824527, 49.926014961500044 ] } },
{ "type": "Feature", "properties": { "JPT_KOD_JE": "1206123", "JPT_NAZWA_": "Słomniki", "KOD_WOJ": 12, "KOD_POW": 1206, "WOJ": "małopolskie", "POW": "krakowski", "TMCE": "TAK", "ILOSC": 259 }, "geometry": { "type": "Point", "coordinates": [ 20.07572824006116, 50.250357329500048 ] } },
{ "type": "Feature", "properties": { "JPT_KOD_JE": "1210092", "JPT_NAZWA_": "Łącko", "KOD_WOJ": 12, "KOD_POW": 1210, "WOJ": "małopolskie", "POW": "nowosądecki", "TMCE": "TAK", "ILOSC": 29 }, "geometry": { "type": "Point", "coordinates": [ 20.462586473400364, 49.543030219500054 ] } },
{ "type": "Feature", "properties": { "JPT_KOD_JE": "1210122", "JPT_NAZWA_": "Nawojowa", "KOD_WOJ": 12, "KOD_POW": 1210, "WOJ": "małopolskie", "POW": "nowosądecki", "TMCE": "TAK", "ILOSC": 48 }, "geometry": { "type": "Point", "coordinates": [ 20.740838965340469, 49.528188337000074 ] } },
{ "type": "Feature", "properties": { "JPT_KOD_JE": "1214053", "JPT_NAZWA_": "Proszowice", "KOD_WOJ": 12, "KOD_POW": 1214, "WOJ": "małopolskie", "POW": "proszowicki", "TMCE": "TAK", "ILOSC": 384 }, "geometry": { "type": "Point", "coordinates": [ 20.328257172362072, 50.205936807500052 ] } },
{ "type": "Feature", "properties": { "JPT_KOD_JE": "1214062", "JPT_NAZWA_": "Radziemice", "KOD_WOJ": 12, "KOD_POW": 1214, "WOJ": "małopolskie", "POW": "proszowicki", "TMCE": "TAK", "ILOSC": 61 }, "geometry": { "type": "Point", "coordinates": [ 20.194154265352946, 50.262308037500048 ] } },
{ "type": "Feature", "properties": { "JPT_KOD_JE": "1205062", "JPT_NAZWA_": "Łużna", "KOD_WOJ": 12, "KOD_POW": 1205, "WOJ": "małopolskie", "POW": "gorlicki", "TMCE": "TAK", "ILOSC": 266 }, "geometry": { "type": "Point", "coordinates": [ 21.064915050545977, 49.697299470000047 ] } },
{ "type": "Feature", "properties": { "JPT_KOD_JE": "2416063", "JPT_NAZWA_": "Ogrodzieniec", "KOD_WOJ": 24, "KOD_POW": 2416, "WOJ": "śląskie", "POW": "zawierciański", "TMCE": "TAK", "ILOSC": 298 }, "geometry": { "type": "Point", "coordinates": [ 19.528607041356075, 50.45779613250005 ] } },
{ "type": "Feature", "properties": { "JPT_KOD_JE": "1213052", "JPT_NAZWA_": "Osiek", "KOD_WOJ": 12, "KOD_POW": 1213, "WOJ": "małopolskie", "POW": "oświęcimski", "TMCE": "TAK", "ILOSC": 184 }, "geometry": { "type": "Point", "coordinates": [ 19.286546900320481, 49.945332097000033 ] } },
{ "type": "Feature", "properties": { "JPT_KOD_JE": "2475011", "JPT_NAZWA_": "Sosnowiec", "KOD_WOJ": 24, "KOD_POW": 2475, "WOJ": "śląskie", "POW": "Sosnowiec", "TMCE": "TAK", "ILOSC": 371 }, "geometry": { "type": "Point", "coordinates": [ 19.215562002366092, 50.271234206500054 ] } },
{ "type": "Feature", "properties": { "JPT_KOD_JE": "2413062", "JPT_NAZWA_": "Ożarowice", "KOD_WOJ": 24, "KOD_POW": 2413, "WOJ": "śląskie", "POW": "tarnogórski", "TMCE": "TAK", "ILOSC": 70 }, "geometry": { "type": "Point", "coordinates": [ 19.051180969363607, 50.47561015550005 ] } },
{ "type": "Feature", "properties": { "JPT_KOD_JE": "2417152", "JPT_NAZWA_": "Węgierska Górka", "KOD_WOJ": 24, "KOD_POW": 2417, "WOJ": "śląskie", "POW": "żywiecki", "TMCE": "TAK", "ILOSC": 177 }, "geometry": { "type": "Point", "coordinates": [ 19.144908220780401, 49.577751818500076 ] } },
{ "type": "Feature", "properties": { "JPT_KOD_JE": "1218022", "JPT_NAZWA_": "Brzeźnica", "KOD_WOJ": 12, "KOD_POW": 1218, "WOJ": "małopolskie", "POW": "wadowicki", "TMCE": "TAK", "ILOSC": 219 }, "geometry": { "type": "Point", "coordinates": [ 19.597621557754678, 49.956707343000033 ] } },
{ "type": "Feature", "properties": { "JPT_KOD_JE": "2417142", "JPT_NAZWA_": "Ujsoły", "KOD_WOJ": 24, "KOD_POW": 2417, "WOJ": "śląskie", "POW": "żywiecki", "TMCE": "TAK", "ILOSC": 29 }, "geometry": { "type": "Point", "coordinates": [ 19.157780011885592, 49.469796083000062 ] } },
{ "type": "Feature", "properties": { "JPT_KOD_JE": "1215082", "JPT_NAZWA_": "Zawoja", "KOD_WOJ": 12, "KOD_POW": 1215, "WOJ": "małopolskie", "POW": "suski", "TMCE": "TAK", "ILOSC": 119 }, "geometry": { "type": "Point", "coordinates": [ 19.572271344762164, 49.635373916000049 ] } },
{ "type": "Feature", "properties": { "JPT_KOD_JE": "1218062", "JPT_NAZWA_": "Spytkowice", "KOD_WOJ": 12, "KOD_POW": 1218, "WOJ": "małopolskie", "POW": "wadowicki", "TMCE": "TAK", "ILOSC": 97 }, "geometry": { "type": "Point", "coordinates": [ 19.521700460222085, 49.985678216500048 ] } },
{ "type": "Feature", "properties": { "JPT_KOD_JE": "2402062", "JPT_NAZWA_": "Jaworze", "KOD_WOJ": 24, "KOD_POW": 2402, "WOJ": "śląskie", "POW": "bielski", "TMCE": "TAK", "ILOSC": 32 }, "geometry": { "type": "Point", "coordinates": [ 18.935292085338151, 49.776802058500039 ] } },
{ "type": "Feature", "properties": { "JPT_KOD_JE": "1210022", "JPT_NAZWA_": "Chełmiec", "KOD_WOJ": 12, "KOD_POW": 1210, "WOJ": "małopolskie", "POW": "nowosądecki", "TMCE": "TAK", "ILOSC": 852 }, "geometry": { "type": "Point", "coordinates": [ 20.625667178516352, 49.651015361500043 ] } },
{ "type": "Feature", "properties": { "JPT_KOD_JE": "1210062", "JPT_NAZWA_": "Korzenna", "KOD_WOJ": 12, "KOD_POW": 1210, "WOJ": "małopolskie", "POW": "nowosądecki", "TMCE": "TAK", "ILOSC": 19 }, "geometry": { "type": "Point", "coordinates": [ 20.822568178681369, 49.697638472000051 ] } },
{ "type": "Feature", "properties": { "JPT_KOD_JE": "1206052", "JPT_NAZWA_": "Kocmyrzów-Luborzyca", "KOD_WOJ": 12, "KOD_POW": 1206, "WOJ": "małopolskie", "POW": "krakowski", "TMCE": "TAK", "ILOSC": 494 }, "geometry": { "type": "Point", "coordinates": [ 20.102804743257636, 50.156403526000076 ] } },
{ "type": "Feature", "properties": { "JPT_KOD_JE": "2401042", "JPT_NAZWA_": "Bobrowniki", "KOD_WOJ": 24, "KOD_POW": 2401, "WOJ": "śląskie", "POW": "będziński", "TMCE": "TAK", "ILOSC": 90 }, "geometry": { "type": "Point", "coordinates": [ 19.037401388453773, 50.412388231500046 ] } },
{ "type": "Feature", "properties": { "JPT_KOD_JE": "2401052", "JPT_NAZWA_": "Mierzęcice", "KOD_WOJ": 24, "KOD_POW": 2401, "WOJ": "śląskie", "POW": "będziński", "TMCE": "TAK", "ILOSC": 50 }, "geometry": { "type": "Point", "coordinates": [ 19.130693728319301, 50.434117919000073 ] } },
{ "type": "Feature", "properties": { "JPT_KOD_JE": "2401073", "JPT_NAZWA_": "Siewierz", "KOD_WOJ": 24, "KOD_POW": 2401, "WOJ": "śląskie", "POW": "będziński", "TMCE": "TAK", "ILOSC": 66 }, "geometry": { "type": "Point", "coordinates": [ 19.239549990166971, 50.460283585500065 ] } },
{ "type": "Feature", "properties": { "JPT_KOD_JE": "2403052", "JPT_NAZWA_": "Chybie", "KOD_WOJ": 24, "KOD_POW": 2403, "WOJ": "śląskie", "POW": "cieszyński", "TMCE": "TAK", "ILOSC": 85 }, "geometry": { "type": "Point", "coordinates": [ 18.816595621116271, 49.887711331500071 ] } },
{ "type": "Feature", "properties": { "JPT_KOD_JE": "1213062", "JPT_NAZWA_": "Oświęcim", "KOD_WOJ": 12, "KOD_POW": 1213, "WOJ": "małopolskie", "POW": "oświęcimski", "TMCE": "TAK", "ILOSC": 33 }, "geometry": { "type": "Point", "coordinates": [ 19.289408636174066, 50.01458382800007 ] } },
{ "type": "Feature", "properties": { "JPT_KOD_JE": "1218072", "JPT_NAZWA_": "Stryszów", "KOD_WOJ": 12, "KOD_POW": 1218, "WOJ": "małopolskie", "POW": "wadowicki", "TMCE": "TAK", "ILOSC": 185 }, "geometry": { "type": "Point", "coordinates": [ 19.637321647311168, 49.831112316500054 ] } },
{ "type": "Feature", "properties": { "JPT_KOD_JE": "2417042", "JPT_NAZWA_": "Jeleśnia", "KOD_WOJ": 24, "KOD_POW": 2417, "WOJ": "śląskie", "POW": "żywiecki", "TMCE": "TAK", "ILOSC": 135 }, "geometry": { "type": "Point", "coordinates": [ 19.3510865163232, 49.612988117000043 ] } },
{ "type": "Feature", "properties": { "JPT_KOD_JE": "1210113", "JPT_NAZWA_": "Muszyna", "KOD_WOJ": 12, "KOD_POW": 1210, "WOJ": "małopolskie", "POW": "nowosądecki", "TMCE": "TAK", "ILOSC": 48 }, "geometry": { "type": "Point", "coordinates": [ 20.884260251475915, 49.369663650500058 ] } },
{ "type": "Feature", "properties": { "JPT_KOD_JE": "1212032", "JPT_NAZWA_": "Bolesław", "KOD_WOJ": 12, "KOD_POW": 1212, "WOJ": "małopolskie", "POW": "olkuski", "TMCE": "TAK", "ILOSC": 85 }, "geometry": { "type": "Point", "coordinates": [ 19.475468611687226, 50.301170496500049 ] } }
]
}
